[{"id":7082,"name":"Back Bay Brewing Company","brewery_type":"micro","street":"614 Norfolk Ave","city":"Virginia Beach","state":"Virginia","postal_code":"23451-4419","country":"United States","longitude":"-75.9797441428571","latitude":"36.8377837142857","phone":"7575317750","website_url":"http://www.backbaybrewingco.com","updated_at":"2018-08-24T16:27:08.471Z","tag_list":[]},{"id":7098,"name":"Belly Love Brewing Company","brewery_type":"brewpub","street":"725 E Main St","city":"Purcellville","state":"Virginia","postal_code":"20132-3178","country":"United States","longitude":"-77.7015903","latitude":"39.1364247","phone":"5404413159","website_url":"http://www.bellylovebrewing.com","updated_at":"2018-08-24T16:27:27.910Z","tag_list":[]},{"id":7105,"name":"Billsburg Brewery","brewery_type":"micro","street":"2054 Jamestown Rd","city":"Williamsburg","state":"Virginia","postal_code":"23185-7911","country":"United States","longitude":"-76.7129558","latitude":"37.2682365","phone":"","website_url":"http://www.billsburg.com","updated_at":"2018-08-24T16:27:37.217Z","tag_list":[]},{"id":7131,"name":"Bull Island Brewing Company","brewery_type":"brewpub","street":"758 Settlers Landing Rd","city":"Hampton","state":"Virginia","postal_code":"23669-4035","country":"United States","longitude":"-76.3420654545455","latitude":"37.0248734545455","phone":"7577889489","website_url":"http://www.bullislandbrewing.com","updated_at":"2018-08-24T16:28:00.661Z","tag_list":[]},{"id":7156,"name":"Eavesdrop Brewery","brewery_type":"micro","street":"7223 Centreville Rd Ste 115","city":"Manassas","state":"Virginia","postal_code":"20111","country":"United States","longitude":"-77.469","latitude":"38.752531","phone":"7034208955","website_url":"http://www.eavesdropbrewery.com","updated_at":"2018-08-24T16:28:31.194Z","tag_list":[]},{"id":7171,"name":"Gordon Biersch Brewery Restaurant - Virginia Beach","brewery_type":"brewpub","street":"4561 Virginia Beach Blvd","city":"Virginia Beach","state":"Virginia","postal_code":"23462-3015","country":"United States","longitude":"-76.1345641","latitude":"36.8432205","phone":"7574902739","website_url":"http://www.craftworksrestaurants.com","updated_at":"2018-08-24T16:28:49.482Z","tag_list":[]},{"id":7203,"name":"Legend Brewing Co","brewery_type":"brewpub","street":"1 High St","city":"Portsmouth","state":"Virginia","postal_code":"23704-3814","country":"United States","longitude":"-76.2966634213108","latitude":"36.83482035","phone":"8042328871","website_url":"https://www.legendbrewing.com/portsmouth.asp","updated_at":"2018-08-24T16:29:22.127Z","tag_list":[]},{"id":7210,"name":"Loudoun Brewing Co","brewery_type":"micro","street":"310 E Market St","city":"Leesburg","state":"Virginia","postal_code":"20176-4101","country":"United States","longitude":"-77.532576","latitude":"39.09743","phone":"5712236097","website_url":"http://www.loudounbrewing.com","updated_at":"2018-08-24T16:29:31.276Z","tag_list":[]},{"id":7235,"name":"Ono Brewing Company","brewery_type":"micro","street":"4520 Daly Dr Ste 102","city":"Chantilly","state":"Virginia","postal_code":"20151-3735","country":"United States","longitude":"-77.4437006339208","latitude":"38.8832787522685","phone":"5714096662","website_url":"http://www.onobrewco.com","updated_at":"2018-08-24T16:29:59.425Z","tag_list":[]},{"id":7249,"name":"Reason Beer","brewery_type":"micro","street":"1180 Seminole Trl Ste 290","city":"Charlottesville","state":"Virginia","postal_code":"22901-5713","country":"United States","longitude":"-78.486033001597","latitude":"38.0679283078808","phone":"4342494572","website_url":"http://www.reasonbeer.com","updated_at":"2018-08-24T16:30:18.922Z","tag_list":[]},{"id":7253,"name":"Restless Moons Brewing","brewery_type":"micro","street":"120 W Wolfe St","city":"Harrisonburg","state":"Virginia","postal_code":"22802-3815","country":"United States","longitude":"-78.870847259293","latitude":"38.4518952234726","phone":"5402172726","website_url":"http://www.restlessmoons.com","updated_at":"2018-08-24T16:30:23.497Z","tag_list":[]},{"id":7281,"name":"Studio Brew","brewery_type":"brewpub","street":"221 Moore St","city":"Bristol","state":"Virginia","postal_code":"24201-4302","country":"United States","longitude":"-82.1823137347038","latitude":"36.5986280768857","phone":"4233603258","website_url":"http://www.studiobrew.beer","updated_at":"2018-08-24T16:31:01.113Z","tag_list":[]},{"id":7297,"name":"Three Notch'd Sour House","brewery_type":"micro","street":"520 2nd St SE","city":"Charlottesville","state":"Virginia","postal_code":"22902-5794","country":"United States","longitude":"-78.4820248","latitude":"38.0261159","phone":"4349563141","website_url":"http://threenotchdbrewing.com/","updated_at":"2018-08-24T16:31:21.980Z","tag_list":[]},{"id":7303,"name":"Triple Crossing Brewing Company","brewery_type":"micro","street":"113 S. Foushee St.","city":"Richmond","state":"Virginia","postal_code":"23220-5616","country":"United States","longitude":"-77.4455177","latitude":"37.5415927","phone":"8043991780","website_url":"http://www.triplecrossingbeer.com","updated_at":"2018-08-24T16:31:31.017Z","tag_list":[]},{"id":7312,"name":"Wasserhund Brewing Company","brewery_type":"brewpub","street":"1805 Laskin Rd Ste 102","city":"Virginia Beach","state":"Virginia","postal_code":"23454-4553","country":"United States","longitude":"-76.0276214674499","latitude":"36.849165","phone":"7573511326","website_url":"http://www.wasserhundbrewing.com","updated_at":"2018-08-24T16:31:40.178Z","tag_list":[]},{"id":7094,"name":"Beale's","brewery_type":"brewpub","street":"510 Grove St","city":"Bedford","state":"Virginia","postal_code":"24523","country":"United States","longitude":"-79.51785","latitude":"37.33585","phone":"","website_url":"http://www.bealesbeer.com","updated_at":"2018-08-24T16:27:23.383Z","tag_list":[]},{"id":7154,"name":"Dragon Run Brewing","brewery_type":"planning","street":"","city":"Manquin","state":"Virginia","postal_code":"23106","country":"United States","longitude":null,"latitude":null,"phone":"8043800730","website_url":"http://www.dragonrunbrewing.com","updated_at":"2018-08-11T21:40:04.841Z","tag_list":[]},{"id":7196,"name":"Jack's Run Brewing Co","brewery_type":"micro","street":"108 North 21st Street","city":"Purcellville","state":"Virginia","postal_code":"20132","country":"United States","longitude":"-77.7149118539252","latitude":"39.13704895","phone":"5404413382","website_url":"http://www.jacksrunbrewing.com","updated_at":"2018-08-24T16:29:14.790Z","tag_list":[]},{"id":7246,"name":"Quattro Goombas Brewery","brewery_type":"brewpub","street":"22860 James Monroe Hwy","city":"Aldie","state":"Virginia","postal_code":"20105-1916","country":"United States","longitude":null,"latitude":null,"phone":"7035091332","website_url":"http://www.goombabrewery.com","updated_at":"2018-08-11T21:40:08.270Z","tag_list":[]},{"id":7295,"name":"Three Notch'd Brewing Company","brewery_type":"micro","street":"520 2nd St SE","city":"Charlottesville","state":"Virginia","postal_code":"22902-5794","country":"United States","longitude":"-78.4820248","latitude":"38.0261159","phone":"","website_url":"https://threenotchdbrewing.com/","updated_at":"2018-08-24T16:31:18.943Z","tag_list":[]}]